,City,Country,Max Temp,Current Description,Lat,Lng,Hotel Name
0,Kapaa,US,80.92,broken clouds,22.0752,-159.319,Sheraton Kauai Coconut Beach Resort
4,Hilo,US,77.61,few clouds,19.7297,-155.09,Hilo Hawaiian Hotel
10,Lasem,ID,77.63,broken clouds,-6.6922,111.4527,"Nyah Lasem | Museum, Guest House & Community Center"
11,Manggar,ID,80.17,moderate rain,-2.8833,108.2667,Guest Hotel
15,Itarema,BR,85.5,clear sky,-2.9248,-39.9167,"Sea Lounge! Bar, Club & Restaurant"
25,Butaritari,KI,82.04,light rain,3.0707,172.7902,Isles Sunset Lodge
26,Arraial Do Cabo,BR,82.36,clear sky,-22.9661,-42.0278,Pousada Porto Praia
29,Takoradi,GH,77.86,overcast clouds,4.8845,-1.7554,Raybow International Hotel
33,Jamestown,US,88.18,broken clouds,42.097,-79.2353,Hampton Inn & Suites Jamestown
38,Bardiyah,LY,81.84,clear sky,31.7561,25.0865,بورتو بردية
44,Samarai,PG,78.69,overcast clouds,-10.6167,150.6667,Nuli Sapi
46,Thompson,CA,75.36,scattered clouds,55.7435,-97.8558,Burntwood Hotel
48,La Victoria,VE,86.63,clear sky,10.2184,-67.3302,Hotel Hacienda El Recreo
51,Dodge City,US,79.23,clear sky,37.7528,-100.0171,Windsor Inn & Suites
54,Bara,NG,77.22,overcast clouds,10.3744,10.7288,
58,San Patricio,US,87.89,scattered clouds,28.017,-97.5169,"Motel 6 Sinton, TX"
75,Vila Velha,BR,79.97,few clouds,-20.3297,-40.2925,Quality Suites Vila Velha
77,Padang,ID,75.25,moderate rain,-0.9492,100.3543,Mercure Padang
78,Piura,PE,83.07,scattered clouds,-5.2,-80.6333,Hotel El Sol
80,Panorama,GR,86.52,few clouds,40.5878,23.0315,Panorama Hotel
83,Hearst,CA,77.25,scattered clouds,49.6835,-83.6665,Companion
84,Atuona,PF,79.09,few clouds,-9.8,-139.0333,Villa Enata
87,Labuhan,ID,78.55,broken clouds,-6.8844,112.2051,PT PPI Lamongan Tambak C
88,Wilmington,US,84.97,broken clouds,34.2257,-77.9447,"Hotel Ballast Wilmington, Tapestry Collection by Hilton"
89,Axim,GH,78.4,light rain,4.8699,-2.2405,AXIM BEACH RESORT AND SPA
91,Mangrol,IN,84.33,moderate rain,21.1167,70.1167,Hotel The Royal Honours
92,La Peca,PE,79.34,light rain,-5.6111,-78.435,Hospedaje San Miguelito
101,Kota Kinabalu,MY,75.18,few clouds,5.9749,116.0724,Gaya Centre Hotel
102,Birjand,IR,79.27,clear sky,32.8663,59.2211,Birjand Tourist Hotel
103,Tefe,BR,84.31,scattered clouds,-3.3542,-64.7114,Aracati Hotel
106,Georgetown,MY,81.95,scattered clouds,5.4112,100.3354,Cititel Penang
108,Victoria,HK,86.38,overcast clouds,22.2855,114.1577,Mini Hotel Central
111,Lazaro Cardenas,MX,80.35,overcast clouds,17.9583,-102.2,quinta antigua
113,Shahrud,IR,80.29,scattered clouds,36.4182,54.9763,Royal Hotel
118,Dhrol,IN,84.24,overcast clouds,22.5667,70.4167,Marknday Holiday
123,Quelimane,MZ,75.15,clear sky,-17.8786,36.8883,Hotel Flamingo
128,Puerto Ayora,EC,78.76,scattered clouds,-0.7393,-90.3518,Finch Bay Galapagos Hotel
130,Balabac,PH,81.12,broken clouds,7.9868,117.0645,Sing and Swing Lodge
134,Makakilo City,US,77.61,clear sky,21.3469,-158.0858,Marriott's Ko Olina Beach Club
135,Houma,US,87.8,overcast clouds,29.5958,-90.7195,Courtyard by Marriott Houma
136,Caravelas,BR,77.13,few clouds,-17.7125,-39.2481,Pousada dos Navegantes
138,Dianalund,DK,75.29,clear sky,55.5313,11.4925,Patienthotel
140,Sur,OM,87.89,clear sky,22.5667,59.5289,Sur Plaza Hotel
141,Hithadhoo,MV,83.05,scattered clouds,-0.6,73.0833,Scoop Guest House
144,Vanimo,PG,77.68,broken clouds,-2.6741,141.3028,Vahmoneh Lodge Vanimo
146,Luwuk,ID,75.38,scattered clouds,-0.9516,122.7875,Hotel Santika Luwuk
148,Hornostayivka,UA,75.04,broken clouds,47.0078,33.729,
149,Bairiki,KI,77.0,light rain,1.3292,172.9752,Tarawa Boutique Hotel
150,Alice Town,BS,81.91,broken clouds,25.7167,-79.3,Bimini Big Game Club Resort & Marina
151,Amapa,BR,89.1,scattered clouds,1.0,-52.0,
152,Dinhata,IN,80.65,broken clouds,26.1333,89.4667,Hotel Riya
153,Touros,BR,85.1,scattered clouds,-5.1989,-35.4608,INN NEW HORIZON
154,Lubliniec,PL,79.29,broken clouds,50.669,18.6844,Hotel Zamek Lubliniec
156,Sao Filipe,CV,75.81,few clouds,14.8961,-24.4956,Hotel Xaguate
159,Ponta Do Sol,PT,75.83,clear sky,32.6667,-17.1,Hotel do Campo
167,Port Blair,IN,82.38,overcast clouds,11.6667,92.75,"Welcomhotel By ITC Hotels, Bay Island, Port Blair"
170,Kahului,US,78.84,clear sky,20.8947,-156.47,Maui Seaside Hotel
172,Saint Anthony,US,85.91,broken clouds,45.0205,-93.218,"Holiday Inn Express Roseville-St. Paul, an IHG Hotel"
176,Weligama,LK,78.28,scattered clouds,5.9667,80.4167,Weligama Bay Resort
183,Troyes,FR,75.54,light rain,48.3333,4.0833,Logis Hôtel des Sources
187,Palora,EC,78.78,light rain,-1.7,-77.9333,Rancho grande
188,Matadi,CD,80.8,scattered clouds,-5.8167,13.45,Hotel Vivi Palace
189,Boueni,YT,75.18,clear sky,-12.9025,45.0761,The feet in water
190,Santiago De Cuba,CU,89.22,few clouds,20.0247,-75.8219,Cubanacan San Felix
195,Crossville,US,86.25,broken clouds,35.949,-85.0269,Hampton Inn Crossville
198,Chebenki,RU,82.15,scattered clouds,51.9337,55.7077,
200,Bubaque,GW,80.87,scattered clouds,11.2833,-15.8333,"Casa Dora, Bubaque"
207,Mikhaylovka,RU,76.23,scattered clouds,50.06,43.2379,5 Komnat
209,Ostroleka,PL,75.69,overcast clouds,53.0862,21.5757,Pokoje Gościnne WSAP
210,Smithers,CA,79.12,clear sky,54.7804,-127.1743,"Prestige Hudson Bay Lodge, Premier Collection"
211,Kula,TR,79.68,clear sky,38.5473,28.6498,Anemon Kula Hotel
212,Nieuw Nickerie,SR,80.51,scattered clouds,5.95,-56.9833,Ishwardat Inn
216,Pangai,TO,75.31,few clouds,-19.8,-174.35,Ha'apai Beach Resort
222,Agadir,MA,81.05,clear sky,30.4202,-9.5982,Iberostar Founty Beach
223,Miri,MY,77.14,scattered clouds,4.4148,114.0089,"Mega Hotel, Miri"
234,Balti,MD,80.65,scattered clouds,47.7617,27.9289,Apartment in Balti
242,Gat,IL,86.4,clear sky,31.61,34.7642,OlusHome
245,Wajir,KE,82.26,overcast clouds,1.7471,40.0573,Al-bustan Hotel And Restaurant.
246,Nizhniy Baskunchak,RU,84.47,overcast clouds,48.2198,46.8311,Arman hotel
248,Sao Jose Da Coroa Grande,BR,78.87,clear sky,-8.8978,-35.1478,Crôa Mares Hotel
249,Porto Novo,BJ,84.02,light rain,6.4965,2.6036,Tour Eiffel Hotel Benin
250,Beloeil,CA,89.4,broken clouds,45.5668,-73.1992,Manoir Rouville Campbell
257,Lasa,IT,82.31,overcast clouds,46.6166,10.7002,Pension Feldgärtenhof
260,Weiz,AT,86.05,scattered clouds,47.2167,15.6167,Hotel Restaurant Allmer
262,Osterburg,DE,85.5,broken clouds,52.7833,11.7667,Altmarkhotel
265,Kimbe,PG,75.78,overcast clouds,-5.5502,150.1429,Kimbe Bay Hotel
268,Irece,BR,76.93,broken clouds,-11.3042,-41.8558,RADAR INN HOTEL
271,Torbat-E Jam,IR,82.78,clear sky,35.244,60.6225,White building
272,Pilar,BR,80.53,scattered clouds,-9.5972,-35.9567,Pousada e churrascaria Manguaba
273,Saint-Georges,GD,85.68,few clouds,12.0564,-61.7485,Radisson Grenada Beach Resort
279,Puerto Leguizamo,CO,82.87,scattered clouds,-0.1934,-74.7819,la casona de juancho
280,Idah,NG,76.35,overcast clouds,7.1065,6.7342,Ubiga Hotel Idah
283,Komsomolskiy,UZ,86.72,scattered clouds,40.4272,71.7189,Ikathouse
285,Namuac,PH,79.39,overcast clouds,18.6109,121.1657,Mlin Hotel
287,Monticello,US,85.95,broken clouds,45.3055,-93.7941,Super 8 by Wyndham Monticello
289,Surt,LY,84.16,clear sky,31.2089,16.5887,الهادي ابوشعاله سرت
290,Sabang,ID,83.32,scattered clouds,5.8933,95.3214,Hotel Citra
291,Namatanai,PG,79.38,light rain,-3.6667,152.4333,Seagulls Inn Namatani
293,Soledad,CO,89.73,few clouds,10.9184,-74.7646,Cochi y Cocho
297,Verkhnyaya Khava,RU,77.07,scattered clouds,51.8404,39.9413,Gostinitsa
301,Manzanillo,CU,88.29,overcast clouds,20.3433,-77.1167,"HOSTAL ""THE YELLOW HOUSE"""
303,Kalmunai,LK,81.57,broken clouds,7.4167,81.8167,VS Villa
310,Maragogi,BR,78.4,clear sky,-9.0122,-35.2225,Salinas do Maragogi All Inclusive Resort
311,Nantucket,US,86.97,clear sky,41.2835,-70.0995,Jared Coffin House
313,Caxito,AO,75.85,broken clouds,-8.5785,13.6643,
314,Bintulu,MY,77.41,scattered clouds,3.1667,113.0333,900 Boutique INN
318,Kutum,SD,86.85,overcast clouds,14.2,24.6667,Dibbo areaمنطقة دبو
327,Sibolga,ID,75.27,broken clouds,1.7427,98.7792,Hotel Syariah CN Darussalam
338,Salalah,OM,80.69,broken clouds,17.0151,54.0924,HAMDAN PLAZA HOTEL SALALAH
340,Springfield,US,85.89,broken clouds,37.2153,-93.2982,University Plaza Hotel & Convention Center
344,Balakovo,RU,80.94,few clouds,52.0278,47.8007,Victoria Hotel
348,Marsh Harbour,BS,82.78,clear sky,26.5412,-77.0636,Abaco Beach Resort
349,Tra Vinh,VN,77.0,scattered clouds,9.9347,106.3453,Hồng Ân
352,Landeck,AT,79.54,overcast clouds,47.1301,10.5636,Hotel Jägerhof
353,Arlington,US,87.53,broken clouds,32.7357,-97.1081,Days Inn by Wyndham Arlington Six Flags/AT&T Stadium
355,Oranjestad,AW,87.75,scattered clouds,12.524,-70.027,Divi Village Golf & Beach Resort
356,Faanui,PF,80.47,light rain,-16.4833,-151.75,Bora-Bora Pearl Beach Resort & Spa
357,Jinji,CN,79.34,overcast clouds,23.2281,110.8261,
362,Nikolayevka,RU,76.78,few clouds,53.1257,47.2041,Отель Наталья
366,Muskogee,US,84.27,overcast clouds,35.5834,-95.3336,
370,Tucurui,BR,89.1,few clouds,-3.7661,-49.6725,BBB Rooms Centro Tucurui PA
373,La Ronge,CA,82.62,scattered clouds,55.1001,-105.2842,Northland Motor Hotel
375,Caronport,CA,79.68,clear sky,50.4501,-105.8179,Pilgrim Inn
376,Rincon,US,83.21,overcast clouds,32.296,-81.2354,Days Inn Rincon
377,Cabo Rojo,PR,88.25,overcast clouds,18.0866,-67.1457,Hotel Perichi's
380,Tulsipur,NP,83.07,scattered clouds,28.131,82.2973,Ekanta Hotel Pvt. Ltd
382,Bathsheba,BB,88.41,few clouds,13.2167,-59.5167,Atlantis Hotel
388,Haimen,CN,78.69,overcast clouds,23.1935,116.6142,Jinghao Business Hotel
389,Shache,CN,84.09,overcast clouds,38.4167,77.2406,Delong Hotel
393,Princeton,US,87.03,light rain,25.5384,-80.4089,American Best Inn
399,Eyl,SO,78.3,overcast clouds,7.9803,49.8164,Amiin Hotel
401,Abu Samrah,SY,87.51,clear sky,35.3029,37.1841,
402,Waingapu,ID,75.54,scattered clouds,-9.6567,120.2641,Pondok Wisata Elim
403,Sale,MA,75.63,scattered clouds,34.0389,-6.8166,Hôtel Mercure Rabat Sheherazade
404,Cayenne,GF,86.09,clear sky,4.9333,-52.3333,Hôtel Le Dronmi
406,Lagos,NG,77.18,light rain,6.5833,3.75,
407,Ahuimanu,US,78.78,broken clouds,21.4447,-157.8378,Paradise Bay Resort
409,Belmonte,BR,77.5,scattered clouds,-15.8631,-38.8828,Pousada Monte Carmelo O Pão
410,Dingle,PH,76.75,clear sky,10.9995,122.6711,SEGAYA PROPERTY
411,Hengshui,CN,84.4,scattered clouds,37.7322,115.7011,Eaka Hotel Hengshui Railway Station Branch
417,Guaratinga,BR,75.87,broken clouds,-16.5667,-39.5667,Hotel Caraíva
418,Limbang,MY,77.31,overcast clouds,4.75,115.0,Purnama Hotel
420,Pital,CO,81.12,few clouds,2.2665,-75.8044,Finca el Rebaño Vida el Uvital
424,Ketchikan,US,76.86,clear sky,55.3422,-131.6461,Snows Cove Lodge
426,Macae,BR,87.55,clear sky,-22.3708,-41.7869,Personal Hotel
429,Bucerias,MX,80.58,overcast clouds,20.75,-105.3333,Villa del Palmar Flamingos Beach Resort & Spa Riviera Nayarit
430,Nabire,ID,75.02,overcast clouds,-3.3667,135.4833,Hotel Nusantara Nabire
431,Sydney Mines,CA,81.09,broken clouds,46.2367,-60.2177,At The Harbourfront B&B Inc
433,Prilep,MK,86.47,few clouds,41.3464,21.5544,Guest House Antika
436,Parnamirim,BR,85.89,scattered clouds,-5.9156,-35.2628,Pousada Joaci
443,Fria,GN,80.51,light rain,10.4167,-13.5833,
447,San Carlos,VE,87.64,scattered clouds,9.6612,-68.5827,Hotel Paternopoli
448,Torgelow,DE,84.51,clear sky,53.6333,14.0167,Hotels Zum Forsthaus
450,Novoorsk,RU,81.25,few clouds,51.381,58.9813,Gostevoi dom >
452,Monte Azul,BR,84.25,clear sky,-15.155,-42.8747,Hotel Delfino
453,Mweka,CD,76.51,scattered clouds,-4.85,21.5667,Guest House Boshab
455,Garowe,SO,84.47,broken clouds,8.4054,48.4845,Curubo Hotel
456,Kotaparh,IN,78.82,overcast clouds,19.15,82.35,Bablu Bikash Marg
457,San Jose,US,82.53,few clouds,37.3394,-121.895,The Westin San Jose
458,Ugoofaaru,MV,83.1,broken clouds,5.6667,73.0,Ungoofaaru Inn
459,Natal,BR,86.22,scattered clouds,-5.795,-35.2094,Villa Park Hotel | Natal
460,Erenhot,CN,76.62,overcast clouds,43.6475,111.9767,Erenhot Rurouni Youth Hostel
462,Harper,LR,78.13,light rain,4.375,-7.7169,Screensaver
464,Teacapan,MX,80.98,overcast clouds,22.55,-105.75,Hotel los Mangos
466,Catuday,PH,81.25,overcast clouds,16.2923,119.8062,GResort
467,Inongo,CD,76.82,overcast clouds,-1.95,18.2667,Hotel Du Lac
469,Ardesen,TR,75.16,broken clouds,41.1911,40.9875,Green Suada Hotel
472,Fort Nelson,CA,78.39,few clouds,58.8053,-122.7002,The Fort Nelson Hotel
475,Beihai,CN,85.15,overcast clouds,21.4833,109.1,21 Degree Hostel
476,Shubarkuduk,KZ,83.79,clear sky,49.1447,56.4872,Sirius
477,Tikapur,NP,89.04,scattered clouds,28.5,81.1333,BANANA AGRO RESORT
479,Damietta,EG,84.09,clear sky,31.4165,31.8133,SULIMAN INN
480,Dzerzhinsk,RU,82.22,scattered clouds,56.2389,43.4631,Hotel Druzhba
482,Wainwright,CA,82.31,clear sky,52.839,-110.8572,Ramada by Wyndham Wainwright
484,Olds,CA,88.9,clear sky,51.7834,-114.102,Ramada by Wyndham Olds
487,Bandarbeyla,SO,77.74,scattered clouds,9.4942,50.8122,JABIR HOTEL
492,Tongchuan,CN,78.84,few clouds,35.0806,109.0897,Tongchuan Hotel
494,San Cristobal,VE,84.38,few clouds,7.7669,-72.225,Posada Villaven C.A.
495,Ipixuna,BR,84.15,broken clouds,-1.7625,-48.8043,Casa da Oscarina
497,Ouesso,CG,76.57,overcast clouds,1.6136,16.0517,Hôtel LAVOUMA suite
498,Leon,MX,75.15,overcast clouds,21.1167,-101.6667,Hotel Misión León
500,Oistins,BB,87.89,few clouds,13.0667,-59.5333,Butterfly Beach Hotel
501,Penhold,CA,84.94,clear sky,52.1334,-113.8687,Harvard Park Business Ctr Ltd
502,Hirara,JP,82.71,overcast clouds,24.8,125.2833,Hotel Atoll Emerald Miyakojima
504,Sulangan,PH,83.75,clear sky,11.1373,123.7228,Maia's Beach Resort
508,Lorengau,PG,81.16,scattered clouds,-2.0226,147.2712,Lorengau Harbourside Hotel
509,Cockburn Town,TC,85.96,scattered clouds,21.4612,-71.1419,Osprey Beach Hotel
510,Iralaya,HN,82.49,broken clouds,15.0,-83.2333,Iglesia morava renovada
511,Lusambo,CD,80.8,scattered clouds,-4.9667,23.45,
515,Kalianget,ID,81.36,few clouds,-7.05,113.9333,Pesanggrahan Garam
516,Jasper,US,80.65,few clouds,37.2001,-94.3502,Guest House Motel
519,Hai Duong,VN,89.71,overcast clouds,20.9333,106.3167,Chau A Hotel
521,Chaohu,CN,77.11,clear sky,31.6,117.8667,Shell Hefei Chaohu Railway Station Wanda Plaza Hotel
525,Manuk Mangkaw,PH,83.1,few clouds,4.8,119.85,
527,Mut,TR,87.35,clear sky,36.6439,33.4389,Konak Otel
528,Aksu,CN,82.51,overcast clouds,41.1231,80.2644,Pudong Holiday Hotel
529,Pedernales,DO,88.93,overcast clouds,18.0384,-71.744,Hotel Costa Marina
533,Tallahassee,US,86.32,scattered clouds,30.4383,-84.2807,Four Points by Sheraton Tallahassee Downtown
538,Cabedelo,BR,81.27,scattered clouds,-6.9811,-34.8339,Hotel Pigalle
541,Nago,JP,81.03,heavy intensity rain,26.5881,127.9761,Hotel Yugaf Inn Okinawa
542,Seybaplaya,MX,85.46,overcast clouds,19.65,-90.6667,sala de fiesta san Rafael
547,Guantanamo,CU,89.17,overcast clouds,20.1444,-75.2092,Hotel Guantánamo
550,Mazatlan,MX,87.03,broken clouds,23.2167,-106.4167,Hotel Club Playamar
551,Ormara,PK,82.69,clear sky,25.2088,64.6357,Crystal Beach and Camping Resort Ormara
552,Valleyview,CA,84.24,clear sky,55.0667,-117.2859,Paradise Inn & Suites
554,Sheridan,US,75.58,clear sky,44.8333,-106.9173,Comfort Inn & Suites
556,Booue,GA,77.31,overcast clouds,-0.0921,11.9385,Splendeur de l'équateur
557,Pekan,MY,75.31,moderate rain,3.4836,103.3996,Pekan Budget Hotel
560,Baijiantan,CN,76.08,clear sky,45.6333,85.1833,
563,Lodja,CD,83.53,broken clouds,-3.4833,23.4333,
568,Tautira,PF,75.22,broken clouds,-17.7333,-149.15,Pension Oaoa
570,San Policarpo,PH,78.8,clear sky,12.1791,125.5072,JM Lodge
572,Russell,US,87.91,scattered clouds,32.3502,-85.1999,Macs
574,Martapura,ID,75.29,few clouds,-3.4167,114.85,Montana Hotel Syariah
576,Banda Aceh,ID,79.97,broken clouds,5.5577,95.3222,Sulthan Hotel International
577,Narasapur,IN,83.21,scattered clouds,16.45,81.6667,TCI Xps
578,Wahiawa,US,75.79,clear sky,21.5028,-158.0236,Aloha Wahiawa
579,Elko,US,86.74,clear sky,41.0002,-115.5012,
581,Nong Chik,TH,77.5,broken clouds,6.8436,101.178,Bakkahland Farm and Resort
582,Flin Flon,CA,78.64,broken clouds,54.7682,-101.865,Victoria Inn Flin Flon
587,Kloulklubed,PW,77.5,broken clouds,7.0419,134.2556,Storyboard Beach Resort
592,Biltine,TD,80.31,overcast clouds,14.5333,20.9167,Hôtel Trois Étoiles de Biltine
596,Bay Saint Louis,US,89.33,broken clouds,30.3088,-89.33,The Abode Guest House
602,Lerik,AZ,79.52,broken clouds,38.7726,48.4128,Hotel Lerik
606,Pamekasan,ID,79.27,scattered clouds,-7.1568,113.4746,OYO 3027 Griya Temenggungan Syariah
608,Birao,CF,82.13,broken clouds,10.2849,22.7882,
609,Nagua,DO,89.46,overcast clouds,19.3832,-69.8474,Hotel Cambri
610,Sangueya,GN,83.82,scattered clouds,10.7,-14.3667,
611,Rowlett,US,87.67,broken clouds,32.9029,-96.5639,Chiesa Estates
614,Grimshaw,CA,87.03,clear sky,56.1834,-117.6027,Pomeroy Inn & Suites Grimshaw
616,South Milwaukee,US,76.5,overcast clouds,42.9106,-87.8606,Hilton Garden Inn Milwaukee Airport
617,Sola,VU,79.65,broken clouds,-13.8833,167.55,Leumerus Bungalows
619,Gizo,SB,80.28,overcast clouds,-8.103,156.8419,Imagination Island
620,Goalpara,IN,78.44,broken clouds,26.1667,90.6167,SPOT ON 66402 Hotel Moon Moon
621,Lahij,YE,89.35,scattered clouds,13.1667,44.5833,
623,Jelenia Gora,PL,79.7,overcast clouds,50.8997,15.729,Hotel BARON Karczma Grodzka
624,Guane,CU,89.29,scattered clouds,22.2025,-84.0875,base de Campismo LosPortales de Guane
627,La Romana,DO,85.73,overcast clouds,18.4273,-68.9728,Casa de Campo Resort and Villas
628,Trairi,BR,85.68,clear sky,-3.2778,-39.2689,janelas do mar
630,Grand-Lahou,CI,78.55,light rain,5.1367,-5.0242,Hotel Beatitude de Grand Lahou
632,Wanlaweyn,SO,76.08,broken clouds,2.6185,44.8938,GAASHAAN HOME
633,Amahai,ID,76.64,scattered clouds,-3.3333,128.9167,HOTEL ISABELA
634,Emba,KZ,84.81,clear sky,48.8264,58.1442,
637,Kynsperk Nad Ohri,CZ,82.38,overcast clouds,50.1189,12.5303,Penzion Jahoda
642,Aleksandrovka,UA,78.91,broken clouds,46.8383,32.7612,
643,Saquena,PE,81.01,broken clouds,-4.6667,-73.5167,
649,Waycross,US,82.63,broken clouds,31.2136,-82.354,Super 8 by Wyndham Waycross GA
652,Helena,US,85.32,clear sky,46.5927,-112.0361,"Holiday Inn Express & Suites Helena, an IHG Hotel"
655,Kulhudhuffushi,MV,83.26,broken clouds,6.6221,73.07,Hondaafushi Island Resort
660,Krasnogvardeyskoye,RU,78.04,overcast clouds,45.8456,41.5186,Staraya Mel'nitsa Gostinitsa
662,Lachi,PK,88.34,clear sky,33.3833,71.3386,Stil sadabahar
663,Pacific Grove,US,81.81,haze,36.6177,-121.9166,Lovers Point Inn
664,Bom Jesus Da Lapa,BR,86.79,clear sky,-13.255,-43.4181,Hotel das Nações
666,Avera,US,89.47,few clouds,33.194,-82.5271,
672,Niquero,CU,84.38,overcast clouds,20.0431,-77.5828,Islazul Niquero
674,Balikpapan,ID,75.81,overcast clouds,-1.2675,116.8289,ibis Balikpapan
675,Perelyub,RU,78.85,scattered clouds,51.8667,50.3667,
679,Bam,IR,89.58,clear sky,29.106,58.357,Bam Tourist Hotel
683,Dwarka,IN,84.47,overcast clouds,22.2394,68.9678,Hotel Narayan Avezika Comfort
685,Boa Vista,BR,89.58,scattered clouds,2.8197,-60.6733,Aipana Plaza Hotel
686,Morant Bay,JM,86.63,overcast clouds,17.8815,-76.4093,Whispering Bamboo Cove Resort
688,Port-Gentil,GA,78.76,broken clouds,-0.7193,8.7815,Fengshui Residence
693,Kawardha,IN,84.81,overcast clouds,22.0167,81.25,STARiHOTELS Raipur Road kawardha
694,Acapulco,MX,85.82,overcast clouds,16.8634,-99.8901,HS Hotsson Smart Acapulco
696,Guaruja,BR,82.0,overcast clouds,-23.9931,-46.2564,Charme Hotel Guarujá
699,Kailua,US,79.07,broken clouds,21.4022,-157.7394,Sheffield House Bed & Breakfast
703,Saint-Jovite,CA,82.62,broken clouds,46.1186,-74.5966,Hôtel Vacances Tremblant
704,The Valley,AI,87.66,few clouds,18.217,-63.0578,CeBlue Villas & Beach Resort
711,Turan,VN,85.98,few clouds,16.0678,108.2208,Sun River Hotel
713,Road Town,VG,87.89,scattered clouds,18.4167,-64.6167,"ZINGARA 76ft Catamaran, full crew-all included"
716,Pacifica,US,77.29,broken clouds,37.6138,-122.4869,"Pacifica Lighthouse, Trademark Collection by Wyndham"
717,Rapid Valley,US,76.62,clear sky,44.0625,-103.1463,Fairfield by Marriott Rapid City
719,Lincoln,US,84.38,clear sky,40.8,-96.667,Courtyard by Marriott Lincoln Downtown/Haymarket
720,Almaznyy,RU,77.14,scattered clouds,48.0448,40.045,
721,Oktyabrskiy,RU,76.24,overcast clouds,54.4815,53.471,Уязы-Тау гостиница
722,Patrocinio,BR,76.96,clear sky,-18.9439,-46.9925,Guines Palace Hotel 34-99816-3311
731,Cape Coast,GH,79.0,light rain,5.1053,-1.2466,Samrit Hotel
732,Mitchell,US,79.74,broken clouds,43.7094,-98.0298,Kelly Inn & Suites
736,Tutoia,BR,85.98,scattered clouds,-2.7619,-42.2744,Pousada Guará's
737,Ixtapa,MX,80.22,overcast clouds,20.7,-105.2,Hotel Plaza Providencia
738,Yichang,CN,76.64,broken clouds,30.7144,111.2847,Gezhouba Hotel
744,Lardos,GR,87.62,clear sky,36.0942,28.0157,Lindos Princess Beach Hotel
745,Sao Joao Da Barra,BR,80.69,clear sky,-21.6403,-41.0511,Pousada Porto De Canoas
747,Merauke,ID,76.96,scattered clouds,-8.4667,140.3333,
751,Griffith,US,85.03,overcast clouds,41.5284,-87.4237,"Motel 6 Hammond, IN - Chicago Area"
753,Monthey,CH,78.87,overcast clouds,46.2555,6.9607,Le Saint Christophe
755,Hranice,CZ,81.43,scattered clouds,49.548,17.7347,Zámecký hotel Zlatý orel
759,Saint Leonard,CA,81.84,broken clouds,47.173,-67.9247,Daigle's Motel
761,Ananas,HT,78.87,overcast clouds,19.2466,-71.9557,
763,Inirida,CO,83.82,broken clouds,3.8653,-67.9239,Fuente del Guania Hotel de Lujo
764,Elbistan,TR,77.07,scattered clouds,38.2059,37.1983,Sword Hotel
766,Pierre,US,80.06,broken clouds,44.3683,-100.351,Ramkota Hotel
768,Daund,IN,79.56,scattered clouds,18.4667,74.6,Kende Wada
770,Zhaoqing,CN,82.81,light rain,23.0512,112.4597,七星岩旅游度假区
775,Azare,NG,89.24,overcast clouds,11.6765,10.1948,Muk hostel
781,Fare,PF,80.4,broken clouds,-16.7,-151.0167,Maitai Lapita Village Huahine
785,Puerto Escondido,MX,85.03,scattered clouds,15.85,-97.0667,Aldea del Bazar Hotel and Spa
788,Algiers,DZ,80.42,clear sky,36.7525,3.042,Sofitel Algiers Hamma Garden
790,Garissa,KE,79.97,broken clouds,-0.4536,39.6401,Sharif Plaza Hotel
791,Galle,LK,79.09,scattered clouds,6.0367,80.217,Amangalla
792,Canico,PT,75.83,few clouds,32.6333,-16.85,Quinta Splendida Wellness & Botanical Garden
793,Umm Lajj,SA,87.94,clear sky,25.0213,37.2685,Moon light Furnished Units
794,Praia,CV,84.74,clear sky,14.9215,-23.5087,LT Aparthotel
798,Turbat,PK,88.9,broken clouds,26.0023,63.044,Mubashar Quarters
800,Whitecourt,CA,79.84,clear sky,54.1502,-115.6855,Super 8 by Wyndham Whitecourt
801,Ubeda,ES,83.35,clear sky,38.0133,-3.3705,"Palacio del Deán Ortega, Úbeda"
804,Kudahuvadhoo,MV,82.06,scattered clouds,2.6708,72.8944,Niyama Private Islands Maldives
805,Kieta,PG,78.01,overcast clouds,-6.2167,155.6333,Uruna Bay Retreat
808,Narasannapeta,IN,83.25,overcast clouds,18.4167,84.05,G.lingaraju home
809,Palasbari,IN,82.45,mist,26.1361,91.5486,Hotel Kings Castle
810,Bontang,ID,80.4,overcast clouds,0.1333,117.5,KOPKAR Hotel Bintang Sintuk
815,Porbandar,IN,85.17,overcast clouds,21.6422,69.6093,Lords Inn Porbandar
816,Hambantota,LK,79.86,scattered clouds,6.1241,81.1185,Bungalow 63
823,Dzaoudzi,YT,75.09,clear sky,-12.7887,45.2699,Le Rocher
829,Richards Bay,ZA,75.18,scattered clouds,-28.783,32.0377,BON Hotel Waterfront Richards Bay
832,Mackenzie,CA,82.62,clear sky,55.2999,-123.1698,Hilton Shop
834,Mlonggo,ID,78.26,overcast clouds,-6.5333,110.7,Asia Metal Art
836,Chastyye,RU,75.11,broken clouds,57.2888,54.9728,
838,Remontnoye,RU,86.41,scattered clouds,46.5614,43.6501,Remontnoye
840,Muisne,EC,82.51,broken clouds,0.6,-80.0333,Quinta Samay
843,Sihora,IN,87.12,broken clouds,23.4833,80.1167,Hotel Yash Raj Sihora
844,Praya,CV,84.74,clear sky,14.9215,-23.5087,LT Aparthotel
847,Kirakira,SB,75.43,overcast clouds,-10.4544,161.9205,SanBiz Lodge
849,Leninsk,RU,85.86,overcast clouds,48.7119,45.1994,Turbaza Odisseya
851,Korla,CN,79.99,broken clouds,41.7597,86.1469,Gulisitan Hotel
852,Naze,JP,75.45,light rain,28.3667,129.4833,奄美ポートタワーホテル
853,Buritizeiro,BR,83.25,clear sky,-17.3511,-44.9622,Santos Palace Hotel
857,Takestan,IR,84.33,broken clouds,36.0696,49.6959,baghdadi hotelهتل و رستوران بغدادی
859,Baker City,US,89.31,clear sky,44.7749,-117.8344,Bridge Street Inn
862,Mindelo,CV,78.35,broken clouds,16.8901,-24.9804,Hotel Gaudi
873,Gigmoto,PH,80.91,broken clouds,13.7796,124.39,Cj's Travellers Inn
874,Kampong Cham,KH,78.93,overcast clouds,11.9934,105.4635,7 Makara Hotel
876,Nanning,CN,82.85,light rain,22.8167,108.3167,Nanning Travelling With Hostel
878,Lawigan,PH,77.36,scattered clouds,10.487,122.0354,The Assemblage Point Resort and Convention Hub
880,Kavaratti,IN,83.05,overcast clouds,10.5669,72.642,Hotels in Lakshadweep Islands
882,Orta Nova,IT,89.2,clear sky,41.3299,15.7107,Hotel Novelli
884,Betul,IN,81.09,broken clouds,21.9153,77.8961,STARiHotel Betul MP
887,Buala,SB,78.19,light rain,-8.145,159.5921,Maringe Lagoon Lodge
888,Rudsar,IR,84.18,few clouds,37.1376,50.288,Hotel Bahar
891,Conceicao Da Barra,BR,76.75,scattered clouds,-18.5933,-39.7322,Cricaré Praia Hotel
892,Kavieng,PG,81.79,light rain,-2.5744,150.7967,Nusa Island Retreat
893,Porto Nacional,BR,89.6,clear sky,-10.7081,-48.4172,Vila Real Hotel
894,Lastoursville,GA,79.59,broken clouds,-0.8143,12.7287,Auberge Bon Coin 02
895,Eregli,TR,78.48,broken clouds,37.5133,34.0467,Hotel Fuat Bey
897,Dicabisagan,PH,77.38,overcast clouds,17.0818,122.4157,Nancy Montanes Bernardo
902,Cherdakly,RU,87.75,light rain,54.3594,48.845,"""MOTEL 73"""
904,Swift Current,CA,77.81,clear sky,50.2834,-107.8014,"Motel 6 Swift Current, SK"
905,Matamoros,MX,85.1,scattered clouds,25.5333,-103.25,Quinta Belem
906,Wanning,CN,83.12,overcast clouds,18.8003,110.3967,Paradise Hotel
913,Guabito,PA,84.09,broken clouds,9.5,-82.6167,Cabinas Sanchez Salazar
915,Kyaikto,MM,78.69,light rain,17.3,97.0167,နီလာ တည်းခိုခန်း
916,Athabasca,CA,83.89,clear sky,54.7169,-113.2854,Athabasca Lodge Motel
923,Kerman,IR,78.66,clear sky,30.2832,57.0788,هتل آپارتمان آسام
926,Fez,MA,88.05,clear sky,34.0372,-4.9998,Hotel Mounia Fès
929,Lianzhou,CN,77.45,moderate rain,24.7811,112.3825,Qingcheng Tourism Industry
934,Soyo,AO,77.05,broken clouds,-6.1349,12.3689,Hotel Mpampa
937,Taraz,KZ,79.21,clear sky,42.9,71.3667,Comfort Inn
938,Luanda,AO,75.2,scattered clouds,-8.8368,13.2343,LANDU MARINEZA LUFUANDU TONI
941,Phan Thiet,VN,78.57,scattered clouds,10.9333,108.1,Hotel Saigon-PT
944,Yinchuan,CN,77.81,overcast clouds,38.4681,106.2731,JJ Inns - Yinchuan New Moon Square Branch
951,Chitral,PK,75.38,broken clouds,35.8462,71.7858,PTDC Motel Chitral
953,Jawar,IN,86.99,light rain,23.0,76.5,Sree balaji
955,Maceio,BR,81.84,scattered clouds,-9.6658,-35.7353,Poutur Pousada
956,Sembe,CG,75.25,light rain,1.6481,14.5806,
961,Buena Vista,US,83.44,clear sky,43.4203,-83.8986,Red Roof Inn Saginaw - Frankenmuth
963,Valverde Del Camino,ES,84.09,clear sky,37.5751,-6.7543,HOTEL MONTEAROMA (ulamde hotelera S.L.)
964,Salinas,US,82.2,haze,36.6777,-121.6555,Laurel Inn & Conference Center
965,Pakxan,LA,75.9,light rain,18.3778,103.6601,Kong Kham Pheng Guesthouse
966,Mersing,MY,75.11,few clouds,2.4312,103.8405,Timotel Hotel
977,Soltvadkert,HU,89.6,clear sky,46.5789,19.3939,Frittmann Borászat és Panzió
978,Jingdezhen,CN,76.33,light rain,29.2947,117.2079,Garden Hotel
982,Little Elm,US,87.55,overcast clouds,33.1626,-96.9375,Preston On The Lake
983,Parsabad,IR,86.32,broken clouds,39.6482,47.9174,Peacock Hotel Magi
986,Kano,NG,87.75,overcast clouds,12.0001,8.5167,Havana Guest Inn
987,Praia Da Vitoria,PT,77.25,scattered clouds,38.7333,-27.0667,Hotel Branco I
990,Garmsar,IR,89.28,broken clouds,35.2182,52.3409,Peyvand Hotel
997,Cassilandia,BR,78.22,few clouds,-19.1133,-51.7342,Delirius Motel
998,Gwadar,PK,83.1,few clouds,25.1216,62.3254,Sadaf Resort
1002,Puerto Colombia,CO,89.69,overcast clouds,10.9878,-74.9547,Hotel El Emigrante
1005,Ipameri,BR,82.47,clear sky,-17.7219,-48.1597,Real Hotel
1006,Itoman,JP,80.98,heavy intensity rain,26.1247,127.6694,Southern Beach Hotel & Resort Okinawa
1010,Pattani,TH,80.02,broken clouds,6.75,100.4167,Tobias Kleeberg
1012,Puerto Ayacucho,VE,85.93,scattered clouds,5.6639,-67.6236,Posada Turistica Manapiare
1018,Buchanan,LR,82.36,overcast clouds,5.8808,-10.0467,Kamaneahn Hotel Inc
1020,Pedasi,PA,79.45,broken clouds,7.5333,-80.0333,Selina Pedasi
1021,Halifax,CA,89.49,broken clouds,44.6453,-63.5724,Hotel Halifax
1022,Pointe Michel,DM,88.74,broken clouds,15.25,-61.3833,Castle Comfort Lodge Dive Dominica
1025,Auki,SB,75.22,broken clouds,-8.7676,160.7034,Auki Motel
1029,Ariquemes,BR,83.07,scattered clouds,-9.9133,-63.0408,Hotel Sol Nascente - Ariquemes - RO
1036,Kodinar,IN,82.94,moderate rain,20.7903,70.7031,residency of N.B vadhel
1038,Ajdabiya,LY,83.52,clear sky,30.7554,20.2263,Almadina Hotel
1039,Cabra,ES,89.04,clear sky,37.4725,-4.4421,MS Fuente Las Piedras
1042,Meulaboh,ID,76.21,overcast clouds,4.1363,96.1285,Kost Pria
1043,Arrecife,ES,75.18,few clouds,28.963,-13.5477,Hotel Lancelot
1044,Solhan,TR,79.2,clear sky,38.9634,41.0293,Solhan Ogretmenevi
1045,Hinjilikatu,IN,83.75,overcast clouds,19.4833,84.75,Uma shankar transport
1046,Baculin,PH,77.94,clear sky,7.4525,126.5842,Shovy's Cove
1064,Nicoya,CR,85.55,light rain,10.1483,-85.452,Guayacan Real
1065,Pauini,BR,82.85,broken clouds,-7.7136,-66.9764,Casa do Kiwliks
1068,Mokrous,RU,83.59,scattered clouds,51.2333,47.5167,
1070,Aleksandrov Gay,RU,89.51,broken clouds,50.147,48.5704,Gostinitsa I.p. Yes'kov A.v
1073,Alugan,PH,78.33,clear sky,12.2188,125.4808,JM Lodge
1076,Oshnaviyeh,IR,82.65,broken clouds,37.0397,45.0983,Aram Qurbani
1078,Half Moon Bay,US,79.5,broken clouds,37.4636,-122.4286,"The Ritz-Carlton, Half Moon Bay"
1079,Netanya,IL,86.02,clear sky,32.3329,34.8599,King Koresh Hotel
1080,Khash,IR,83.52,clear sky,28.2211,61.2158,دفتر پیشخوان دولت جمال زهی (خالد)
1081,Trincomalee,LK,82.2,broken clouds,8.5711,81.2335,Welcombe Hotel
1085,Arboletes,CO,84.52,overcast clouds,8.8505,-76.4269,Hotel Playa Star
1086,Tsevie,TG,83.28,overcast clouds,6.4261,1.2133,Hotel Melissa
1087,Cururupu,BR,83.91,scattered clouds,-1.8283,-44.8683,POUSADA TRAVÉS'CIA
1094,Acarau,BR,84.31,clear sky,-2.8856,-40.12,castelo pizzaria
1095,Lamu,KE,75.42,broken clouds,-2.2717,40.902,Lamu House
1099,Daeni,RO,80.94,scattered clouds,44.8333,28.1167,
1103,Galveston,US,79.14,moderate rain,29.3669,-94.9669,Comfort Inn & Suites Texas City
1108,Ambon,ID,75.34,scattered clouds,-3.6954,128.1814,Swiss-Belhotel Ambon
1112,Afua,BR,82.69,broken clouds,-0.1567,-50.3867,Hotel Dias
1114,Luganville,VU,75.92,clear sky,-15.5333,167.1667,The Espiritu Hotel
1118,Odienne,CI,87.67,clear sky,9.51,-7.5692,Oustaz Vame DIAKITE
1123,Fuyang,CN,76.82,scattered clouds,32.9,115.8167,Fuyang Wanda Realm Hotel
1124,Galesong,ID,77.02,broken clouds,-5.3166,119.3661,Sapriadi Appy
1125,Shaoxing,CN,77.94,scattered clouds,30.011,120.5715,Holiday Inn Shaoxing
1129,Lunenburg,CA,89.06,scattered clouds,44.3835,-64.3155,Lunenburg Arms Hotel
1130,Sinnamary,GF,79.77,overcast clouds,5.3833,-52.95,ALETHEIA Appartement Sinnamary
1131,Padilla,CO,81.97,scattered clouds,3.2204,-76.3139,La Granadina
1133,Ibra,OM,84.87,scattered clouds,22.6906,58.5334,مزرعة راحة النفوس المنزفة
1142,Lander,US,75.11,broken clouds,42.833,-108.7307,"Holiday Inn Express & Suites Lander, an IHG Hotel"
1143,Bulungu,CD,79.43,broken clouds,-4.55,18.6,
1145,Hutchinson,US,80.22,overcast clouds,38.0608,-97.9298,OYO Hotel Hutchinson KS West 4th Ave
1146,Zoniana,GR,81.0,clear sky,35.295,24.8294,Archontiko Manias
1150,Lata,PT,77.04,clear sky,40.1629,-8.3327,Casa Maquia
1160,Xacmaz,AZ,81.0,broken clouds,41.4635,48.806,SAHİL HOTEL
1162,Liling,CN,80.49,light rain,27.6667,113.5,Shangri-La Hotel
1166,Shaowu,CN,75.49,light rain,27.3409,117.4831,Yijie Express Hotel
1168,Pitsunda,GE,77.18,scattered clouds,43.1592,40.3378,Hotel FREEDOM
1169,Jonkoping,SE,77.68,broken clouds,57.7814,14.1562,Scandic Portalen
1173,Mouila,GA,77.79,scattered clouds,-1.8685,11.0559,Hôtel du Lac Bleu
1174,Palimbang,PH,77.72,scattered clouds,6.2106,124.1894,Felmar Beach resort
1176,Pandan,PH,80.87,overcast clouds,14.0453,124.1694,Bonifacio Lodge
1179,Negara,ID,76.17,broken clouds,-8.3151,114.6025,Villa Maya West Bali
1183,Shelburne,CA,85.28,scattered clouds,44.0787,-80.2041,The Retreat at the Farm
1190,Rodrigues Alves,BR,89.8,broken clouds,-7.738,-72.6509,Pousada Aconchego
1193,Navalmoral De La Mata,ES,82.96,clear sky,39.8916,-5.5406,Hotel Moya S A
1194,Dar Es Salaam,TZ,78.73,broken clouds,-6.8235,39.2695,Hotel Nikko Tower
1196,Dhidhdhoo,MV,83.43,overcast clouds,6.8833,73.1,Dhidhoo beach
1198,Taki,IN,85.95,overcast clouds,22.5861,88.9214,Taki Bishram Baganbari
1199,Wageningen,NL,76.06,broken clouds,51.9667,5.6667,Fletcher Hotel-Restaurant De Wageningsche Berg
1201,Luancheng,CN,78.96,light rain,37.8792,114.6517,Shell Hebei Shijiazhuang Luancheng Xinyuan Road Hotel
1209,Quijingue,BR,78.03,broken clouds,-10.7525,-39.2092,Pousada Sabor Da Terra
1211,Kyrylivka,UA,76.12,broken clouds,46.3759,35.3675,"Rok-Hotelʹ ""Kleopatra"""
1212,Duku,NG,85.46,clear sky,11.2361,4.9073,
1213,Thessalon,CA,79.56,few clouds,46.2501,-83.5666,Carolyn Beach Inn & Restaurant
1214,Kitimat,CA,79.18,clear sky,54.0524,-128.6534,Kingfish Westcoast Adventures Ltd. Kitimat Estuary Lodge B&B
1217,Riviere-Au-Renard,CA,79.09,scattered clouds,48.9957,-64.3971,Auberge Le Caribou
1218,Espinosa,BR,84.09,clear sky,-14.9261,-42.8192,Hotel Vilma
1219,Mamallapuram,IN,84.25,scattered clouds,12.6264,80.1722,Radisson Blu Resort Temple Bay Mamallapuram
1223,Ubaira,BR,75.61,broken clouds,-13.2681,-39.6628,Grupo Navarro
1227,Valle De Allende,MX,76.1,overcast clouds,26.9333,-105.4,Hotel Meson de San Bartolome
1229,Rameswaram,IN,83.03,scattered clouds,9.2833,79.3,Daiwik Hotels Rameswaram
1232,Mount Pleasant,US,84.34,overcast clouds,32.7941,-79.8626,Best Western Patriots Point
1233,Guozhen,CN,78.06,scattered clouds,34.3659,107.359,Yucai Hotel
1237,Sao Gabriel Da Cachoeira,BR,85.8,scattered clouds,-0.1303,-67.0892,Alarne - Área De Lazer Do Alto Rio Negro
1239,Stalowa Wola,PL,78.42,overcast clouds,50.5829,22.0533,Apartamenty FLOOM Popiełuszki 39
1241,Carutapera,BR,76.62,light rain,-1.195,-46.02,Lidera
1245,Tabou,CI,78.35,light rain,4.423,-7.3528,hotêl doufoulougou
1250,Manokwari,ID,77.52,broken clouds,-0.8667,134.0833,Swiss Belhotel Manokwari
1252,Terrace,CA,78.71,clear sky,54.5163,-128.6035,Northern Motor Inn
1253,Altamira,BR,86.09,broken clouds,-3.2033,-52.2064,Requinte Hotel
1254,Minna,NG,80.87,overcast clouds,9.6139,6.5569,Royal Park hotel & suites
1255,Beaverlodge,CA,83.55,clear sky,55.2166,-119.4361,Side Trax Inn
1256,Porto Torres,IT,80.78,clear sky,40.835,8.3972,Hotel Elisa
1257,Santo Antonio Do Ica,BR,82.83,broken clouds,-3.1022,-67.9397,HOTEL AMAZON WAY
1258,Pa Daet,TH,78.82,moderate rain,19.5049,99.9924,โรงแรมฝ้ายคำ
1265,Baglan,AF,85.78,broken clouds,36.1307,68.7083,Habibullah MOsazai
1267,Abonnema,NG,78.08,overcast clouds,4.7084,6.7931,Corper's Lodge Obonoma
1268,Sisophon,KH,78.96,overcast clouds,13.5859,102.9737,Pyramid Hotel
1270,Suixi,CN,79.72,broken clouds,33.8907,116.7747,Campanile Hotel
1273,Adilabad,IN,82.78,overcast clouds,19.6667,78.5333,Dwaraka Hotel.
1284,Anekal,IN,81.25,overcast clouds,12.7,77.7,Hotel Mayura Nisarga Pearl Valley
1288,Ewa Beach,US,79.02,clear sky,21.3156,-158.0072,Uncle Junior Robert
1294,Kampong Thum,KH,79.2,broken clouds,12.7111,104.8887,Sambor Village Hotel
1296,Tran,BG,76.68,clear sky,42.8353,22.6517,Erma & Spa Boutique Hotel
1297,La Cruz,MX,87.48,overcast clouds,23.9167,-106.9,LIBERADOR DE CELULAS MADRE ADULTAS
1300,Iquitos,PE,86.04,scattered clouds,-3.7481,-73.2472,Casa Morey Hotel & Restaurant
1301,Talara,PE,75.96,clear sky,-4.5772,-81.2719,Hostal Oro Negro
1303,Porto Walter,BR,87.33,broken clouds,-8.2686,-72.7439,Secretaria de saúde
1308,Skaerbaek,DK,77.27,clear sky,55.1573,8.769,Skærbækcentret
1313,Barra Do Garcas,BR,88.38,few clouds,-15.89,-52.2567,Hotel Pousada Tropical
1314,Pasighat,IN,75.38,overcast clouds,28.0667,95.3333,Siang Guest House
1315,Mandera,KE,84.18,broken clouds,3.9366,41.867,Kornesh Hotel and Lodging
1324,Vila Do Maio,CV,84.99,clear sky,15.1333,-23.2167,Hotel Marilu
1329,Luzhou,CN,77.31,light rain,28.8724,105.4405,Shijichun Hotel
1330,Sechura,PE,77.18,scattered clouds,-5.5569,-80.8222,Hospedaje Costa Bella
1331,Monte Alegre,BR,87.62,overcast clouds,-2.0078,-54.0692,Hotel Shekinah
1333,Malindi,KE,77.16,light rain,-3.2175,40.1191,African House Resort
1335,Cartagena,CO,85.62,scattered clouds,10.3997,-75.5144,Hotel Colombia Real - Cartagena
1336,Lingao,CN,83.07,overcast clouds,19.9103,109.6859,Lingao Ditai Inn
1340,Huicheng,CN,78.75,overcast clouds,23.0385,116.2899,Huilai Hotel
1345,Lafia,NG,78.24,light rain,8.4833,8.5167,Low Cost Housing Estate
1347,Quebo,GW,86.95,broken clouds,11.3333,-14.9333,
1349,Grand-Santi,GF,84.56,few clouds,4.25,-54.3833,Hotel La Villa Couacou
1354,Price,US,80.73,clear sky,39.5994,-110.8107,National 9 - Price River Inn
1356,Mana,GF,78.04,overcast clouds,5.6592,-53.7767,LE SAMANA
1358,Bac Lieu,VN,80.96,scattered clouds,9.285,105.7244,Khách sạn Sài Gòn Bạc Liêu
1360,Mahibadhoo,MV,82.9,overcast clouds,3.7833,72.9667,Omadhoo Inn
1361,Great Falls,US,82.69,clear sky,47.5002,-111.3008,Extended Stay America - Great Falls - Missouri River
1363,Gasa,PS,85.98,clear sky,31.5,34.4667,رابطة الفنانين الفلسطينيين
1369,Blankenburg,DE,80.53,overcast clouds,51.7833,10.95,Hotel im Harz - Kurhotel Fürstenhof und Restaurant Vis-A-Vis
1370,Odweyne,SO,80.65,broken clouds,9.4092,45.064,Eng Hiirey House
1371,Ishigaki,JP,83.26,light rain,24.3448,124.1572,Hotel Peace Land Ishigakijima
1372,Upata,VE,87.62,scattered clouds,8.0086,-62.3989,Posada Villa Nela
1373,Villanueva De Cordoba,ES,83.93,clear sky,38.3228,-4.6287,Volao
1374,Tukrah,LY,82.92,clear sky,32.5341,20.5791,Lokta restaurant
1376,Yining,CN,75.43,overcast clouds,29.0361,114.5636,Xiushui Hotel
1380,Majene,ID,76.69,overcast clouds,-3.5403,118.9707,Kost Putri RABBANI
1381,Muncie,US,89.71,broken clouds,40.1934,-85.3864,Best Western Muncie
1383,Quesnel,CA,82.9,clear sky,52.9999,-122.5029,Ramada by Wyndham Quesnel
1388,Santa Marta,CO,89.35,overcast clouds,11.2408,-74.199,Casa de Isabella
1389,Mokena,US,84.67,overcast clouds,41.5261,-87.8892,Hilton Garden Inn Chicago/Tinley Park
1390,Vitry-Le-Francois,FR,75.61,overcast clouds,48.7333,4.5833,Hôtel Tambourin
1391,Port Said,EG,84.18,clear sky,31.2565,32.2841,Aracan Hotel
1392,Am Timan,TD,83.61,overcast clouds,11.0297,20.2827,Palais du chef Canton Salamt
1393,Ailigandi,PA,84.38,broken clouds,9.2333,-78.0167,Akwa Reef Lodge
1394,Ciudad Bolivar,VE,88.18,broken clouds,8.1222,-63.5497,Hotel Edi
1395,River Falls,US,84.07,broken clouds,44.8614,-92.6238,Best Western Plus Campus Inn
1397,San Pedro,PH,78.35,few clouds,14.35,121.0167,Villa Veronica Resort Private Pool
1398,Beauceville,CA,76.78,overcast clouds,46.2179,-70.7787,Motel Royal
1399,Marchena,ES,85.87,clear sky,37.329,-5.4168,GMhotel
1400,Dunmore Town,BS,82.02,overcast clouds,25.5,-76.65,Coral Sands Hotel
1407,Goderich,CA,77.04,scattered clouds,43.7501,-81.7165,Harmony Inn
1408,Zwedru,LR,77.63,overcast clouds,6.0667,-8.1281,Elijah Worjloh
1409,Trapani,IT,89.89,clear sky,37.8333,12.6667,
1410,Shunyi,CN,76.95,clear sky,40.125,116.6453,Beijing Mingchen Holiday Hotel
1412,Lubao,PH,80.31,overcast clouds,14.9167,120.55,Hacienda Gracia
1413,Iracoubo,GF,77.49,overcast clouds,5.4802,-53.2011,Le Gîte d’Iracoubo
1416,San Francisco,US,80.78,broken clouds,37.7749,-122.4194,The Clift Royal Sonesta Hotel
1418,Pa Sang,TH,80.8,overcast clouds,18.5262,98.9394,โรงแรม จามจุรี 99
1419,Jaru,BR,84.49,broken clouds,-10.4389,-62.4664,Hotel Paraná
1420,Salinopolis,BR,82.15,scattered clouds,-0.6136,-47.3561,Salinas Park Resort Maçarico AP101
1424,Oliver,CA,89.85,few clouds,49.1831,-119.5524,Cactus Tree Inn
1425,Leninskoye,KZ,87.73,clear sky,41.7589,69.3864,
1426,Sajanan,TN,79.07,broken clouds,37.0573,9.2426,Centre de culture du tabac sejenene
1429,Suba,PH,83.75,broken clouds,10.8438,121.0102,Casita Bed and Grill
1434,Orodara,BF,89.98,few clouds,10.9492,-4.9342,Bkf Orodara
1435,Acajutla,SV,89.94,overcast clouds,13.5928,-89.8275,asi es
1436,Duluth,US,81.61,clear sky,46.7833,-92.1066,South Pier Inn
1440,Dayong,CN,80.28,light rain,25.0209,118.2898,Haiyue Express Hotel
1441,Hyeres,FR,86.65,clear sky,43.1167,6.1167,Hôtel des Palmiers
1443,Villa Altagracia,DO,87.42,overcast clouds,18.673,-70.171,La Maison de AAVA
1444,Pochutla,MX,85.82,overcast clouds,15.7432,-96.4661,Hotel Posada San Jose
1447,Humpolec,CZ,78.28,few clouds,49.5415,15.3593,fabrika hotel
1448,Nata,PA,88.47,broken clouds,8.3333,-80.5167,Cabañas Estancia Bayamon
1451,Coahuayana,MX,83.68,overcast clouds,18.7333,-103.6833,El rranchito michuacan de ocampos
1453,Badarganj,BD,82.99,moderate rain,25.674,89.0549,Raushon
1455,Gopalur,IN,83.57,overcast clouds,16.6167,77.8,Dhaba- Motel
1458,Callaway,US,86.92,scattered clouds,30.153,-85.5699,"Holiday Inn Express & Suites Panama City-Tyndall, an IHG Hotel"
1459,Dubovyy Umet,RU,84.09,scattered clouds,52.9763,50.2857,
1463,Thai Binh,VN,87.8,overcast clouds,20.45,106.3333,Sweden Hotel
1468,San Ramon,US,81.48,clear sky,37.7799,-121.978,San Ramon Marriott
1470,Phibun Mangsahan,TH,78.78,overcast clouds,15.2447,105.2291,ซันนี่ รีสอร์ท
1471,Totskoye,RU,76.53,clear sky,52.5248,52.7623,Gostinitsa
1487,Gurh,IN,87.62,broken clouds,24.5167,81.5167,Scheduled Tribe Hostel
1495,Puerto Madero,MX,88.0,few clouds,14.7208,-92.4215,Hotel La Central
1500,Potiskum,NG,87.13,overcast clouds,11.7091,11.0694,Tamir Hotel Ltd
1502,Port Hawkesbury,CA,78.91,scattered clouds,45.6169,-61.3485,MacKenzie House Tourist Home B&B
1504,Sanandaj,IR,78.44,clear sky,35.3144,46.9923,Sanandaj Tourist Hotel
1505,Rosetta,EG,80.42,clear sky,31.4044,30.4164,Green Valley
1506,Guilin,CN,77.11,light rain,25.2819,110.2864,Grand 0773 Hotel
1507,Dores Do Indaia,BR,79.11,clear sky,-19.4633,-45.6017,Hotel Central Dorense
1508,Jintur,IN,82.27,overcast clouds,19.6167,76.7,AMOL SALVE SWEET ORANGE FARM
1511,Hobyo,SO,77.65,overcast clouds,5.3505,48.5268,Halane Hotel and Restaurent
1512,Taitung,TW,82.81,overcast clouds,22.7583,121.1444,Taitung Bali Suites Hotel
1513,Tonj,SS,77.09,light rain,7.2737,28.6822,
1516,Guayaramerin,BO,83.8,broken clouds,-10.8368,-65.3614,Hostal Funf
1517,Jeremie,HT,86.27,overcast clouds,18.65,-74.1167,Auberge’Inn
1521,Pyinmana,MM,75.72,moderate rain,19.7333,96.2167,"Win (Computer, Copier, Digital Stamp, Invitation Card, Trophy) Shop"
1525,Onda,ES,81.86,clear sky,39.9667,-0.25,Motel Shhh
1526,Cabot,US,88.99,broken clouds,34.9745,-92.0165,Super 8 by Wyndham Cabot
1530,Nishihara,JP,80.26,heavy intensity rain,26.1842,127.7558,Minshuku Agaihama
1533,Shirgaon,IN,81.0,overcast clouds,19.7,72.7,"Samarth Krupa Farm, Palghar"
1535,Novotroitskaya,RU,77.02,overcast clouds,45.3267,41.5253,"Gostevoy Dom ""Zastava"""
1538,Nyaunglebin,MM,76.98,overcast clouds,17.95,96.7333,Royal Motel
1540,Thinadhoo,MV,83.03,scattered clouds,0.5333,72.9333,
1544,Neijiang,CN,77.11,light rain,29.5835,105.0622,Han'an Hotel
1545,Megalopoli,GR,79.25,clear sky,37.4011,22.1422,Leto Hotel
1548,Aksay,RU,79.18,overcast clouds,47.26,39.87,Chernaya Zhemchuzhina
1551,Boyolangu,ID,75.02,broken clouds,-8.1181,111.8935,Yos ega cv
1554,Brookhaven,US,88.75,broken clouds,31.5791,-90.4407,Americas Best Value Inn Brookhaven
1555,Hidalgotitlan,MX,86.74,overcast clouds,17.7833,-94.6333,
1556,Clinton,US,88.29,overcast clouds,42.587,-82.9199,Hampton Inn Detroit/Roseville
1557,North Platte,US,78.69,clear sky,41.1239,-100.7654,"Holiday Inn Express & Suites North Platte, an IHG Hotel"
1558,Malkapur,IN,81.52,broken clouds,20.8833,76.2,Hotel Sarthi International
1560,Guaira,BR,83.1,clear sky,-20.3183,-48.3106,Hotel do Lago
1561,Xiantao,CN,78.55,few clouds,30.3833,113.4,City Convenient Chain Hotel
1566,Sainte-Maxime,FR,87.37,scattered clouds,43.3,6.6333,Hôtel Les Jardins De Sainte Maxime
1567,Hargeysa,SO,78.94,overcast clouds,9.56,44.065,City Center Hotel
1568,Bauchi,NG,76.8,light rain,10.5,10.0,
1569,Nouakchott,MR,82.33,clear sky,18.0858,-15.9785,HOTEL IMAN فندق إيمان
1570,Kaduqli,SD,76.77,overcast clouds,11.0167,29.7167,فندق الله جابو
1571,Riachao Das Neves,BR,88.07,clear sky,-11.7461,-44.91,Casa Costa
1572,Bajina Basta,RS,89.33,clear sky,43.9708,19.5675,Aprtmani Bajina Basta
1573,Kathu,TH,87.62,broken clouds,7.9178,98.3332,Novotel Phuket Resort
1574,Marang,MY,76.91,scattered clouds,5.2056,103.2059,DBarakah Homestay
1577,Januaria,BR,84.25,clear sky,-15.4833,-44.3667,Hotel Paraguassu
1578,Duncan,US,85.05,broken clouds,34.5023,-97.9578,Days Inn by Wyndham Duncan
1580,Sao Domingos,BR,84.76,clear sky,-13.3983,-46.3183,Hotel e Restaurante Uirapuru (Márcio uirapuru )Em São Domingos -Go
1581,Mulatupo,PA,85.91,broken clouds,8.9492,-77.7652,Hostal Nuevo Sasardí
1583,Cali,CO,82.4,scattered clouds,3.4372,-76.5225,Hotel La Luna
1584,Ternate,ID,78.91,scattered clouds,0.8,127.4,Grand Dafam Bela Ternate
1590,Cochrane,CA,88.7,clear sky,51.1834,-114.4687,Days Inn & Suites by Wyndham Cochrane
1592,Erzin,TR,83.12,clear sky,36.9559,36.2,Artemis Otel
1594,Mattru,SL,80.13,overcast clouds,7.6244,-11.8332,"Mondkor Town, Bagbo Chiefdom, Bo District"
1598,Kibala,TD,80.55,few clouds,9.1104,18.3463,hotel safari
1601,Lloydminster,CA,80.28,few clouds,53.2835,-110.0016,BCMInns - Lloydminster
1607,Bonthe,SL,80.24,overcast clouds,7.5264,-12.505,Bonthe Holiday Village
1608,Veraval,IN,83.59,moderate rain,20.9,70.3667,Lords Inn Somnath
1611,Springdale,US,84.18,scattered clouds,36.1867,-94.1288,Springdale Inn
1614,San Rafael Del Sur,NI,88.77,overcast clouds,11.8485,-86.4384,Hospedaje El Chino
1615,Ayna,PE,75.7,broken clouds,-12.65,-73.9167,
1617,Allapalli,IN,80.46,overcast clouds,19.4167,80.0667,Hotel IK Residency
1618,Barela,IN,85.28,overcast clouds,23.1,80.05,GRKIST Boys Hostel
1620,Dong Hoi,VN,85.59,overcast clouds,17.4833,106.6,Nam Long Hotel
1622,Peranamallur,IN,85.06,broken clouds,12.5667,79.4333,
1626,Albanel,CA,75.34,broken clouds,48.8832,-72.4487,Camping municipal d'Albanel
1630,Tshikapa,CD,79.57,overcast clouds,-6.4167,20.8,Hôtel Tshia-Muntu de Tshikapa
1631,Herat,AF,82.99,clear sky,34.5,62.0,
1637,Xilopolis,GR,84.04,scattered clouds,40.9271,23.1794,spiti xylopoli
1640,Ler,SS,79.93,broken clouds,8.3018,30.1418,
1641,Piacabucu,BR,78.93,scattered clouds,-10.4056,-36.4344,Piaçabuçu News
1642,Navoi,UZ,85.48,clear sky,40.0844,65.3792,Silk Road Hotel Termez
1643,San Ignacio,BZ,89.74,broken clouds,17.1561,-89.0714,Rainforest Haven Inn
1645,Paita,PE,75.76,broken clouds,-5.0892,-81.1144,Hotel Náutico de Paita
1646,Talas,TR,77.67,light rain,38.6908,35.5538,Fimaj Residence
1647,Union City,US,82.99,overcast clouds,37.5958,-122.0192,"Holiday Inn Express Union City (San Jose), an IHG Hotel"
1648,Ferme-Neuve,CA,78.58,overcast clouds,46.7001,-75.4493,Pourvoirie Club Fontbrune Ltee
1653,Nhulunbuy,AU,75.81,scattered clouds,-12.2333,136.7667,East Arnhem Real Estate
1658,Celestun,MX,87.13,overcast clouds,20.8667,-90.4,Posada Lilia
1659,Yima,CN,80.31,broken clouds,34.7381,111.8839,Yima Hotel
1661,Parker,US,86.36,overcast clouds,32.7668,-97.8003,"Candlewood Suites Weatherford, an IHG Hotel"
1662,Zhezkazgan,KZ,80.78,clear sky,47.8043,67.7144,Hotel Zumrat
1667,Woodward,US,77.74,clear sky,36.4337,-99.3904,"Holiday Inn Express & Suites Woodward Hwy 270, an IHG Hotel"
1668,San Fernando,PH,80.33,overcast clouds,15.0286,120.6898,Maharlika Hostel
1671,Tianjin,CN,75.15,light rain,39.1422,117.1767,Holiday Inn Tianjin Riverside
1672,Karwar,IN,79.54,few clouds,14.8,74.1333,Netalco Connects
1673,Kabalo,CD,79.38,scattered clouds,-6.05,26.9167,
1674,Le Vauclin,MQ,87.85,broken clouds,14.5452,-60.8388,Hôtel Cap Macabou
1676,Matara,LK,78.19,scattered clouds,5.9485,80.5353,Amaloh Boutique Resort
1678,Waw,SS,78.28,overcast clouds,7.7029,27.9953,Universal Gab Hotel
1693,Farah,AF,86.9,clear sky,32.5,62.5,
1694,Tiarei,PF,75.22,broken clouds,-17.5333,-149.3333,Le Rocher de Tahiti
1695,Muhlhausen,DE,83.55,overcast clouds,51.2167,10.45,Brauhaus zum Löwen
1696,Aba,NG,76.87,light rain,5.1066,7.3667,Rosies Hotel Limited
1697,Logansport,US,89.56,broken clouds,40.7545,-86.3567,"Holiday Inn Express & Suites Logansport, an IHG Hotel"
1699,Masuguru,TZ,77.36,scattered clouds,-11.3667,38.4167,
1700,Kokopo,PG,77.49,overcast clouds,-4.352,152.2633,Kokopo Beach Bungalow Resort
1702,Santo Estevao,BR,78.73,broken clouds,-12.4303,-39.2514,Campo Hotel
1704,Pathein,MM,79.38,overcast clouds,16.7833,94.7333,New Pammawaddy Hotel
1705,Mao,ES,81.16,few clouds,39.8885,4.2658,ARTIEM Capri
1707,Petit Goave,HT,89.78,overcast clouds,18.4314,-72.8669,Imperial Suite International
1708,Ojinaga,MX,79.75,scattered clouds,29.5667,-104.4167,Suites Las Palmas
1709,Mabaruma,GY,79.32,scattered clouds,8.2,-59.7833,Monty Brooms Guest House
1713,Santa Rosa,PH,79.11,overcast clouds,14.3122,121.1114,Erlyn’s Sta Rosa City Home
1715,Bhadrachalam,IN,83.03,broken clouds,17.6667,80.8833,Hotel Srinidhi Residency
1716,Banyumas,ID,75.24,broken clouds,-7.5142,109.2942,Hadipriyanto Homestay
1717,Nang Rong,TH,80.83,overcast clouds,14.6377,102.7914,Phanomrungpuri Boutique Hotels & Resorts
1720,Hami,CN,78.21,clear sky,42.8,93.45,Laoyutang Resort
1723,Yuxia,CN,77.61,scattered clouds,34.0615,108.6291,Shanchengxuan Hotel
1725,Aquiraz,BR,87.89,clear sky,-3.9014,-38.3911,Pousada Rua Camurupim
1728,San Pedro De Macoris,DO,87.49,overcast clouds,18.4616,-69.2972,Apartahotel Guaraguao
1734,Adre,TD,75.87,overcast clouds,13.4667,22.2,
1735,Puerto Baquerizo Moreno,EC,77.99,few clouds,-0.9,-89.6,Hotel los Algarrobos
1736,Saint-Denis,FR,75.81,overcast clouds,48.9167,2.3333,ibis budget Paris Porte de Montmartre
1738,Mogadishu,SO,77.4,broken clouds,2.0371,45.3438,Hotel Juba
1739,Nieuw Amsterdam,SR,89.62,scattered clouds,5.8833,-55.0833,Globe Hotel
1742,Nagapattinam,IN,82.92,few clouds,10.7667,79.8333,Sathya Lodge
1743,Bhola,BD,83.03,overcast clouds,22.6833,90.65,Student Hostel (Shahbaz Khan Hostel)
1745,Tezu,IN,75.09,overcast clouds,27.9167,96.1667,Circuit House
1747,Qui Nhon,VN,82.38,broken clouds,13.7667,109.2333,Hoang Yen Canary Hotel
1748,Tena,EC,77.76,light rain,-0.9833,-77.8167,Hostal Tena Ñaui
1750,Pucallpa,PE,82.44,light rain,-8.3791,-74.5539,Hospedaje Komby
1753,Tecolutla,MX,84.06,overcast clouds,20.4833,-97.0167,Hotel Plaza Marsol
1754,Qax,AZ,83.39,scattered clouds,41.4225,46.9242,El Resort Hotel
1756,Akyab,MM,82.35,moderate rain,20.15,92.9,Hotel Memory
1760,Misratah,LY,86.05,clear sky,32.3754,15.0925,فندق الماسة
1761,Abilene,US,83.37,broken clouds,32.4487,-99.7331,La Quinta Inn by Wyndham Abilene
1762,Sanary-Sur-Mer,FR,86.85,broken clouds,43.1178,5.8001,Résidence Pierre et Vacances Les Rivages de Coudoulière
1763,Centralina,BR,83.61,clear sky,-18.5839,-49.1994,MM Plaza Hotel
1765,Requena,ES,76.78,clear sky,39.4883,-1.1004,Hotel Avenida
1767,Yazoo City,US,88.75,broken clouds,32.8551,-90.4056,Hampton Inn Yazoo City
1773,Huautla,MX,79.77,overcast clouds,21.0333,-98.2833,Hotel Huautla
1774,Caucaia,BR,87.75,few clouds,-3.7361,-38.6531,M.O.S. Logística - Filial Fortaleza
1777,Kourou,GF,86.11,broken clouds,5.1552,-52.6478,Lodge Takini 4
1779,Drumheller,CA,87.66,clear sky,51.4617,-112.7101,Ramada by Wyndham Drumheller Hotel & Suites
1783,Itanhaem,BR,81.25,overcast clouds,-24.1831,-46.7889,Prainha Residência Artística
1786,Thanh Hoa,VN,82.94,overcast clouds,19.8,105.7667,KHÁCH SẠN NGỌC LY 8
1789,Chaozhou,CN,78.66,overcast clouds,23.6651,116.6379,Seven Corner View Homestay
1792,Fomboni,KM,77.72,clear sky,-12.28,43.7425,Pension Paradis
1796,Itarantim,BR,75.67,broken clouds,-15.6597,-40.0656,Pousada Buterfly
1797,Litovel,CZ,81.61,scattered clouds,49.7012,17.0762,Ubytovna U Šmoldasů
1800,Lhokseumawe,ID,77.38,broken clouds,5.1801,97.1507,OYO 3278 Penginapan Alfajri
1801,Yilan,TW,87.06,overcast clouds,24.757,121.753,Dar Chen Hotel
1807,That Phanom,TH,76.53,overcast clouds,16.9364,104.7104,ณ ธาตุพนมเพลส Na That Panom Place Hotel
1810,Ingham,US,86.05,overcast clouds,42.6,-84.3833,Sunset Place
1816,Uarini,BR,84.15,light rain,-2.99,-65.1083,
1822,Yarada,IN,84.52,mist,17.65,83.2667,Jeevan
1823,Katol,IN,79.36,broken clouds,21.2667,78.5833,Rocks Celibration lawn
1827,Bonawon,PH,80.13,broken clouds,9.134,122.9193,Bonawon
1829,Kaspiyskiy,RU,82.99,broken clouds,45.3929,47.3707,"Gostinitsa ""Gostevoy Dvor"""
1831,Aboisso,CI,77.45,light rain,5.4678,-3.2071,Residence Belle Vue
1832,Key West,US,82.4,scattered clouds,24.5557,-81.7826,Fairfield Inn & Suites by Marriott Key West
1835,Chirongui,YT,75.13,clear sky,-12.9319,45.1483,La Villa Mahatsara
1837,Jiangyou,CN,77.45,overcast clouds,31.7667,104.7167,Shangping Shuyuan Inn
1838,West Bay,KY,88.0,scattered clouds,19.3667,-81.4167,Calypso Cove
1840,Penne,IT,83.75,clear sky,42.4538,13.9299,Bettina
1841,Aloleng,PH,81.45,overcast clouds,16.1307,119.7824,Steve Walden and Emma Sison-Walden Residence
1842,Pontianak,ID,75.18,overcast clouds,-0.0333,109.3333,Aston Pontianak Hotel & Convention Center
1843,Marsa Matruh,EG,82.6,clear sky,31.3525,27.2453,Beau Site
1845,Soteapan,MX,80.8,overcast clouds,18.2333,-94.8667,puente jose maria morelos
1846,Saltpond,GH,79.21,overcast clouds,5.2091,-1.0606,Mfantseman Beach Resort
1847,Sladkovicovo,SK,89.71,scattered clouds,48.2014,17.6385,Hotel Tevel
1852,Kasongo-Lunda,CD,77.41,broken clouds,-6.4667,16.8167,
1856,Kupang,ID,76.26,scattered clouds,-10.1667,123.5833,Hotel On The Rock by Prasanthi
1857,Marzuq,YE,80.35,broken clouds,14.4,46.4667,
1859,Paragominas,BR,89.69,scattered clouds,-2.9667,-47.4833,INOVA
1860,Bentiu,SS,77.94,broken clouds,9.2333,29.8333,Mandela hôtel
1861,Murud,IN,80.28,few clouds,18.3258,72.965,On Point Plaza
1885,Puerto Narino,CO,85.95,overcast clouds,-3.7703,-70.3831,Eware Refugio Amazonico
1886,Seka,TH,76.78,moderate rain,17.9285,103.9552,โรงแรมเสาวลักษณ์วิลล่า
1887,San Remigio,PH,80.62,clear sky,11.0809,123.9381,San Remigio Cultural Center and Leisure
1890,Vaitape,PF,80.46,light rain,-16.5167,-151.75,Conrad Bora Bora Nui
1891,Ewo,CG,83.64,overcast clouds,-0.8725,14.8206,Residence Elonda Ewo
1892,Camargo,MX,80.47,overcast clouds,27.6667,-105.1667,Hotel Santa Fe
1893,Havelock,US,85.98,scattered clouds,34.8791,-76.9013,Sherwood Motel
1895,Sao Francisco Do Conde,BR,80.62,scattered clouds,-12.6275,-38.68,Fazenda Engenho D’Água
1896,Wamba,NG,75.67,light rain,8.9333,8.6,Roma Zee Guest House Annex
1902,Cozumel,MX,89.58,broken clouds,20.5083,-86.9458,Cozumel Palace® All Inclusive Resort
1906,Anito,PH,78.33,few clouds,12.4497,125.2886,The Yellow House
1910,Tunceli,TR,86.86,light rain,39.1083,39.5471,Grand Hotel Şaroğlu
1911,Kiri Buru,IN,79.38,overcast clouds,22.0833,85.35,Lucky India
1912,Monte Carmelo,BR,78.87,clear sky,-18.7247,-47.4986,Park hotel
1914,Carthage,TN,80.15,scattered clouds,36.8611,10.3316,Dar Fatma
1915,Razvilnoye,RU,77.63,light rain,46.2387,41.2987,
1916,Taperoa,BR,87.96,clear sky,-7.2075,-36.8267,Construir material de construção
1917,Council Bluffs,US,84.65,broken clouds,41.2619,-95.8608,"Holiday Inn Express & Suites Council Bluffs - Conv Ctr Area, an IHG Hotel"
1920,Tamandare,BR,79.29,clear sky,-8.7597,-35.1047,Pousada 100 Passos
1922,Frontera,MX,83.32,overcast clouds,26.9333,-101.45,Casagrande Hotel
1923,Alpena,US,79.95,few clouds,45.0617,-83.4327,Days Inn by Wyndham Alpena
1924,Huaihua,CN,76.05,moderate rain,27.5494,109.9592,怀化天庆大酒店
1929,El Sauce,NI,88.0,overcast clouds,12.8869,-86.539,Hotel Blanco
1931,Sand Springs,US,82.11,broken clouds,36.1398,-96.1089,Magnuson Hotel Sand Springs-Tulsa West
1934,Neftcala,AZ,81.55,scattered clouds,39.3742,49.2472,Otel restoran
1935,Morales,CO,75.52,few clouds,2.757,-76.6172,Finca Santa Catalina
1936,Wuning,CN,75.31,broken clouds,29.2589,120.2311,Fu Du Hotel
1941,Barreirinhas,BR,87.76,light rain,-2.7469,-42.8264,Gran Lençóis Flat Residence
